city,lat,lng,country,iso2,admin_name,capital,population,population_proper
Paris,48.8566,2.3522,France,FR,Île-de-France,primary,11020000,2148271
Nice,43.7034,7.2663,France,FR,Provence-Alpes-Côte d’Azur,minor,1006402,341032
Toulouse,43.6045,1.4440,France,FR,Occitanie,admin,968638,486828
Marseille,43.2964,5.3700,France,FR,Provence-Alpes-Côte d’Azur,admin,870018,868277
Rennes,48.1147,-1.6794,France,FR,Bretagne,admin,727357,217728
Grenoble,45.1715,5.7224,France,FR,Auvergne-Rhône-Alpes,minor,687985,157650
Nantes,47.2181,-1.5528,France,FR,Pays de la Loire,admin,633690,314138
Montpellier,43.6119,3.8772,France,FR,Occitanie,minor,607896,290053
Lyon,45.7600,4.8400,France,FR,Auvergne-Rhône-Alpes,admin,516092,516092
Rouen,49.4428,1.0886,France,FR,Normandie,admin,494382,111360
Strasbourg,48.5833,7.7458,France,FR,Grand Est,admin,465069,284677
Nancy,48.6936,6.1846,France,FR,Grand Est,minor,434565,104885
Metz,49.1203,6.1778,France,FR,Grand Est,minor,391187,116581
Brest,48.3900,-4.4900,France,FR,Bretagne,minor,300300,139602
Mulhouse,47.7500,7.3400,France,FR,Grand Est,minor,285121,108942
Limoges,45.8353,1.2625,France,FR,Nouvelle-Aquitaine,minor,283823,131479
Orléans,47.9025,1.9090,France,FR,Centre-Val de Loire,admin,282828,116238
Bordeaux,44.8400,-0.5800,France,FR,Nouvelle-Aquitaine,admin,257804,257068
Le Havre,49.4900,0.1000,France,FR,Normandie,minor,235218,169733
Lille,50.6278,3.0583,France,FR,Hauts-de-France,admin,232787,232787
Reims,49.2628,4.0347,France,FR,Grand Est,minor,182460,182211
Saint-Étienne,45.4347,4.3903,France,FR,Auvergne-Rhône-Alpes,minor,172565,172565
Toulon,43.1258,5.9306,France,FR,Provence-Alpes-Côte d’Azur,minor,171953,171953
Dijon,47.3167,5.0167,France,FR,Bourgogne-Franche-Comté,admin,156920,156854
Angers,47.4736,-0.5542,France,FR,Pays de la Loire,minor,152960,152960
Nîmes,43.8380,4.3610,France,FR,Occitanie,minor,151001,149633
Villeurbanne,45.7667,4.8803,France,FR,Auvergne-Rhône-Alpes,,147712,147712
Clermont-Ferrand,45.7831,3.0824,France,FR,Auvergne-Rhône-Alpes,minor,143886,143886
Le Mans,48.0077,0.1984,France,FR,Pays de la Loire,minor,142946,142946
Aix-en-Provence,43.5263,5.4454,France,FR,Provence-Alpes-Côte d’Azur,minor,142482,142482
Amiens,49.8920,2.2990,France,FR,Hauts-de-France,minor,136105,133891
Tours,47.2436,0.6892,France,FR,Centre-Val de Loire,minor,135787,135787
Boulogne-sur-Mer,50.7264,1.6147,France,FR,Hauts-de-France,minor,133062,40664
Annecy,45.9160,6.1330,France,FR,Auvergne-Rhône-Alpes,minor,126924,126924
Perpignan,42.6986,2.8956,France,FR,Occitanie,minor,120158,119188
Boulogne-Billancourt,48.8352,2.2409,France,FR,Île-de-France,minor,120071,120071
Besançon,47.2400,6.0200,France,FR,Bourgogne-Franche-Comté,minor,115934,115934
Belfort,47.6400,6.8500,France,FR,Bourgogne-Franche-Comté,minor,114445,46954
Saint-Denis,48.9356,2.3539,France,FR,Île-de-France,minor,111135,111135
Argenteuil,48.9500,2.2500,France,FR,Île-de-France,minor,110210,110210
Montreuil,48.8611,2.4436,France,FR,Île-de-France,,109897,109897
Caen,49.1800,-0.3700,France,FR,Normandie,minor,105354,105354
Roubaix,50.6901,3.1817,France,FR,Hauts-de-France,,100000,98089
Tourcoing,50.7239,3.1612,France,FR,Hauts-de-France,,97368,97368
Nanterre,48.8988,2.1969,France,FR,Île-de-France,minor,95105,95105
Avignon,43.9500,4.8075,France,FR,Provence-Alpes-Côte d’Azur,minor,93671,91729
Vitry-sur-Seine,48.7875,2.3928,France,FR,Île-de-France,,93557,93557
Épinal,48.1744,6.4512,France,FR,Grand Est,minor,93184,32223
Créteil,48.7911,2.4628,France,FR,Île-de-France,minor,90605,90605
Poitiers,46.5800,0.3400,France,FR,Nouvelle-Aquitaine,minor,88291,88291
Dunkerque,51.0383,2.3775,France,FR,Hauts-de-France,minor,87353,86865
Aubervilliers,48.9131,2.3831,France,FR,Île-de-France,,86375,86375
Versailles,48.8053,2.1350,France,FR,Île-de-France,minor,85862,85205
Aulnay-sous-Bois,48.9386,2.4906,France,FR,Île-de-France,,85740,85740
Carrières-sur-Seine,48.9108,2.2889,France,FR,Île-de-France,,85191,15003
Colombes,48.9236,2.2522,France,FR,Île-de-France,,85177,85177
Courbevoic,48.8978,2.2531,France,FR,Île-de-France,,81719,81719
Rueil-Malmaison,48.8760,2.1810,France,FR,Île-de-France,,78152,77986
Champigny-sur-Marne,48.8172,2.5156,France,FR,Île-de-France,,77630,77039
Béziers,43.3476,3.2190,France,FR,Occitanie,minor,77177,77177
Pau,43.3000,-0.3700,France,FR,Nouvelle-Aquitaine,minor,77130,76275
La Rochelle,46.1591,-1.1517,France,FR,Nouvelle-Aquitaine,minor,75735,75735
Saint-Maur-des-Fossés,48.7994,2.4997,France,FR,Île-de-France,,74859,74859
Calais,50.9481,1.8564,France,FR,Hauts-de-France,minor,73911,72929
Cannes,43.5513,7.0128,France,FR,Provence-Alpes-Côte d’Azur,,73868,73868
Antibes,43.5808,7.1239,France,FR,Provence-Alpes-Côte d’Azur,,72999,72915
Drancy,48.9300,2.4500,France,FR,Île-de-France,,71318,71318
Ajaccio,41.9267,8.7369,France,FR,Corsica,admin,70659,70659
Mérignac,44.8386,-0.6436,France,FR,Nouvelle-Aquitaine,,70105,70105
Saint-Nazaire,47.2806,-2.2086,France,FR,Pays de la Loire,minor,69993,69993
Colmar,48.0817,7.3556,France,FR,Grand Est,minor,69105,68703
Issy-les-Moulineaux,48.8239,2.2700,France,FR,Île-de-France,,68451,68260
Noisy-le-Grand,48.8478,2.5528,France,FR,Île-de-France,,68183,68126
Courcouronnes,48.6239,2.4294,France,FR,Île-de-France,,67967,13490
Vénissieux,45.6978,4.8867,France,FR,Auvergne-Rhône-Alpes,,65894,65894
Cergy,49.0361,2.0631,France,FR,Île-de-France,minor,65177,65177
Bourges,47.0844,2.3964,France,FR,Centre-Val de Loire,minor,64551,64551
Levallois-Perret,48.8950,2.2872,France,FR,Île-de-France,,64379,64379
La Seyne-sur-Mer,43.1000,5.8830,France,FR,Provence-Alpes-Côte d’Azur,,63936,62888
Pessac,44.8067,-0.6311,France,FR,Nouvelle-Aquitaine,,63808,63808
Valence,44.9333,4.8917,France,FR,Auvergne-Rhône-Alpes,minor,63714,63714
Quimper,47.9967,-4.0964,France,FR,Bretagne,minor,62985,62985
Antony,48.7539,2.2975,France,FR,Île-de-France,minor,62570,62570
Ivry-sur-Seine,48.8078,2.3747,France,FR,Île-de-France,,62052,62052
Montélimar,44.5581,4.7508,France,FR,Auvergne-Rhône-Alpes,,61861,39415
Troyes,48.2997,4.0792,France,FR,Grand Est,minor,61652,61652
Clichy,48.9044,2.3064,France,FR,Île-de-France,,61070,61070
Cherbourg,49.6333,-1.6000,France,FR,Normandie,minor,60991,60991
Montauban,44.0181,1.3558,France,FR,Occitanie,minor,60810,60810
Neuilly-sur-Seine,48.8881,2.2686,France,FR,Île-de-France,,60361,59940
Chambéry,45.5700,5.9118,France,FR,Auvergne-Rhône-Alpes,minor,58919,58833
Niort,46.3258,-0.4606,France,FR,Nouvelle-Aquitaine,minor,58707,58707
Sarcelles,48.9956,2.3808,France,FR,Île-de-France,minor,58587,58587
Pantin,48.8966,2.4017,France,FR,Île-de-France,,57482,57482
Lorient,47.7500,-3.3600,France,FR,Bretagne,minor,57149,57084
Le Blanc-Mesnil,48.9387,2.4614,France,FR,Île-de-France,,56783,56783
Beauvais,49.4303,2.0952,France,FR,Hauts-de-France,minor,56020,56020
Maisons-Alfort,48.8058,2.4378,France,FR,Île-de-France,,55655,55655
Hyères,43.1199,6.1316,France,FR,Provence-Alpes-Côte d’Azur,,55588,55069
Épinay-sur-Seine,48.9553,2.3092,France,FR,Île-de-France,,55084,54771
Meaux,48.9603,2.8883,France,FR,Île-de-France,minor,54991,54991
Chelles,48.8833,2.6000,France,FR,Île-de-France,,54917,54917
Villejuif,48.7919,2.3636,France,FR,Île-de-France,,54753,54753
Narbonne,43.1836,3.0042,France,FR,Occitanie,minor,54700,54700
La Roche-sur-Yon,46.6705,-1.4260,France,FR,Pays de la Loire,minor,54372,54372
Cholet,47.0600,-0.8783,France,FR,Pays de la Loire,minor,53917,53917
Saint-Quentin,49.8486,3.2864,France,FR,Hauts-de-France,minor,53816,53816
Évry,48.6239,2.4294,France,FR,Île-de-France,minor,53641,53641
Bobigny,48.9106,2.4397,France,FR,Île-de-France,minor,53640,53640
Bondy,48.9022,2.4828,France,FR,Île-de-France,,53353,53353
Vannes,47.6559,-2.7603,France,FR,Bretagne,minor,53352,53352
Clamart,48.8014,2.2628,France,FR,Île-de-France,,52971,52926
Fontenay-sous-Bois,48.8517,2.4772,France,FR,Île-de-France,,52939,52256
Fréjus,43.4330,6.7370,France,FR,Provence-Alpes-Côte d’Azur,,52672,52672
Arles,43.6767,4.6278,France,FR,Provence-Alpes-Côte d’Azur,minor,52548,51031
Sartrouville,48.9372,2.1644,France,FR,Île-de-France,,51967,51967
Corbeil-Essonnes,48.6139,2.4820,France,FR,Île-de-France,,51292,50954
Bayonne,43.4900,-1.4800,France,FR,Nouvelle-Aquitaine,minor,51228,51228
Saint-Ouen,48.9123,2.3342,France,FR,Île-de-France,,51108,50670
Sevran,48.9333,2.5333,France,FR,Île-de-France,,51016,51016
Cagnes-sur-Mer,43.6644,7.1489,France,FR,Provence-Alpes-Côte d’Azur,,50928,50928
Massy,48.7309,2.2713,France,FR,Île-de-France,,50833,50632
Grasse,43.6667,6.9167,France,FR,Provence-Alpes-Côte d’Azur,minor,50396,48865
Montrouge,48.8172,2.3219,France,FR,Île-de-France,,50260,48734
Vincennes,48.8478,2.4392,France,FR,Île-de-France,,49891,49635
Vaulx-en-Velin,45.7768,4.9186,France,FR,Auvergne-Rhône-Alpes,,49658,49658
Laval,48.0733,-0.7689,France,FR,Pays de la Loire,minor,49492,49492
Suresnes,48.8700,2.2200,France,FR,Île-de-France,,49145,48763
Albi,43.9289,2.1464,France,FR,Occitanie,minor,48970,48970
Martigues,43.4053,5.0475,France,FR,Provence-Alpes-Côte d’Azur,,48188,48188
Évreux,49.0200,1.1500,France,FR,Normandie,minor,47733,46707
Brive-la-Gaillarde,45.1583,1.5321,France,FR,Nouvelle-Aquitaine,minor,46916,46630
Gennevilliers,48.9333,2.3000,France,FR,Île-de-France,,46907,46907
Charleville-Mézières,49.7719,4.7161,France,FR,Grand Est,minor,46428,46391
Saint-Herblain,47.2122,-1.6497,France,FR,Pays de la Loire,,46268,46268
Aubagne,43.2908,5.5708,France,FR,Provence-Alpes-Côte d’Azur,,46268,46268
Rosny-sous-Bois,48.8667,2.4833,France,FR,Île-de-France,,46207,46043
Saint-Priest,45.6972,4.9447,France,FR,Auvergne-Rhône-Alpes,,46207,46207
Saint-Malo,48.6481,-2.0075,France,FR,Bretagne,minor,46097,46097
Blois,47.5939,1.3281,France,FR,Centre-Val de Loire,minor,46086,45871
Carcassonne,43.2100,2.3500,France,FR,Occitanie,minor,46031,46031
Bastia,42.7008,9.4503,France,FR,Corsica,,45715,45715
Salon-de-Provence,43.6406,5.0972,France,FR,Provence-Alpes-Côte d’Azur,,45528,45400
Meudon,48.8123,2.2382,France,FR,Île-de-France,,45352,45352
Choisy-le-Roi,48.7630,2.4090,France,FR,Île-de-France,,45331,45331
Chalon-sur-Saône,46.7806,4.8528,France,FR,Bourgogne-Franche-Comté,minor,45096,44810
Châlons-en-Champagne,48.9575,4.3650,France,FR,Grand Est,minor,44753,44246
Saint-Germain-en-Laye,48.8989,2.0938,France,FR,Île-de-France,minor,44753,44750
Puteaux,48.8850,2.2389,France,FR,Île-de-France,,44645,44645
Livry-Gargan,48.9192,2.5361,France,FR,Île-de-France,,44437,44437
Saint-Brieuc,48.5136,-2.7653,France,FR,Bretagne,minor,44372,44170
Mantes-la-Jolie,48.9908,1.7172,France,FR,Île-de-France,minor,44299,44227
Noisy-le-Sec,48.8894,2.4503,France,FR,Île-de-France,,44136,44136
Les Sables-d’Olonne,46.4972,-1.7833,France,FR,Pays de la Loire,minor,44017,44017
Alfortville,48.8050,2.4239,France,FR,Île-de-France,,43881,43881
Châteauroux,46.8103,1.6911,France,FR,Centre-Val de Loire,minor,43741,43442
Valenciennes,50.3580,3.5233,France,FR,Hauts-de-France,minor,43336,43336
Sète,43.4053,3.6975,France,FR,Occitanie,,43229,43229
Caluire-et-Cuire,45.7953,4.8472,France,FR,Auvergne-Rhône-Alpes,,43187,42847
Istres,43.5151,4.9895,France,FR,Provence-Alpes-Côte d’Azur,minor,43133,43133
La Courneuve,48.9322,2.3967,France,FR,Île-de-France,,43054,43054
Garges-lès-Gonesse,48.9728,2.4008,France,FR,Île-de-France,,42728,42728
Talence,44.8000,-0.5840,France,FR,Nouvelle-Aquitaine,,42606,42606
Angoulême,45.6500,0.1600,France,FR,Nouvelle-Aquitaine,minor,41740,41711
Castres,43.6000,2.2500,France,FR,Occitanie,minor,41636,41636
Bron,45.7394,4.9139,France,FR,Auvergne-Rhône-Alpes,,41543,41543
Bourg-en-Bresse,46.2056,5.2289,France,FR,Auvergne-Rhône-Alpes,minor,41527,41248
Tarbes,43.2300,0.0700,France,FR,Occitanie,minor,41518,41518
Le Cannet,43.5769,7.0194,France,FR,Provence-Alpes-Côte d’Azur,,41471,41471
Rezé,47.1833,-1.5500,France,FR,Pays de la Loire,,41411,41411
Arras,50.2920,2.7800,France,FR,Hauts-de-France,minor,41019,41019
Wattrelos,50.7000,3.2170,France,FR,Hauts-de-France,,40958,40885
Bagneux,48.7983,2.3137,France,FR,Île-de-France,,40918,40812
Gap,44.5594,6.0786,France,FR,Provence-Alpes-Côte d’Azur,minor,40895,40559
Thionville,49.3589,6.1692,France,FR,Grand Est,minor,40701,40477
Alès,44.1281,4.0817,France,FR,Occitanie,minor,40219,40219
Compiègne,49.4149,2.8231,France,FR,Hauts-de-France,minor,40199,40199
Melun,48.5406,2.6600,France,FR,Île-de-France,minor,40032,39947
Douai,50.3714,3.0800,France,FR,Hauts-de-France,minor,39700,39634
Gagny,48.8833,2.5333,France,FR,Île-de-France,,39358,39358
Draguignan,43.5403,6.4667,France,FR,Provence-Alpes-Côte d’Azur,minor,39340,39106
Colomiers,43.6139,1.3367,France,FR,Occitanie,,38951,38951
Anglet,43.4850,-1.5183,France,FR,Nouvelle-Aquitaine,,38929,38929
Stains,48.9500,2.3833,France,FR,Île-de-France,,38720,38666
Marcq-en-Baroeul,50.6711,3.0972,France,FR,Hauts-de-France,,38617,38570
Chartres,48.4560,1.4840,France,FR,Centre-Val de Loire,minor,38578,38426
Saint-Martin-d’Hères,45.1672,5.7653,France,FR,Auvergne-Rhône-Alpes,,38487,38398
Joué-lés-Tours,47.3514,0.6625,France,FR,Centre-Val de Loire,,37893,37893
Poissy,48.9294,2.0456,France,FR,Île-de-France,,37388,37388
Châtillon,48.8000,2.2900,France,FR,Île-de-France,,37355,37010
Villefranche-sur-Saône,45.9833,4.7167,France,FR,Auvergne-Rhône-Alpes,minor,36857,36288
Échirolles,45.1436,5.7183,France,FR,Auvergne-Rhône-Alpes,,36840,36840
Villepinte,48.9550,2.5410,France,FR,Île-de-France,,36830,36830
Franconville,48.9889,2.2314,France,FR,Île-de-France,,36762,36762
Savigny-sur-Orge,48.6797,2.3457,France,FR,Île-de-France,,36533,36533
Sainte-Geneviève-des-Bois,48.6369,2.3403,France,FR,Île-de-France,,36207,36015
Conflans-Sainte-Honorine,48.9992,2.0983,France,FR,Île-de-France,,35846,35656
Annemasse,46.1958,6.2364,France,FR,Auvergne-Rhône-Alpes,,35712,35712
Bagnolet,48.8692,2.4181,France,FR,Île-de-France,,35674,35442
Creil,49.2583,2.4833,France,FR,Hauts-de-France,,35657,35657
Montluçon,46.3408,2.6033,France,FR,Auvergne-Rhône-Alpes,minor,35653,34938
Palaiseau,48.7145,2.2457,France,FR,Île-de-France,minor,35514,35514
La Ciotat,43.1769,5.6086,France,FR,Provence-Alpes-Côte d’Azur,,35174,35174
Saint-Raphaël,43.4252,6.7684,France,FR,Provence-Alpes-Côte d’Azur,,35042,35042
Neuilly-sur-Marne,48.8537,2.5490,France,FR,Île-de-France,,34993,34993
Saint-Chamond,45.4775,4.5153,France,FR,Auvergne-Rhône-Alpes,,34967,34967
Thonon-les-Bains,46.3627,6.4750,France,FR,Auvergne-Rhône-Alpes,minor,34756,34756
Auxerre,47.7986,3.5672,France,FR,Bourgogne-Franche-Comté,minor,34634,34634
Haguenau,48.8200,7.7900,France,FR,Grand Est,minor,34504,34504
Roanne,46.0367,4.0689,France,FR,Auvergne-Rhône-Alpes,minor,34366,34004
Athis-Mons,48.7074,2.3889,France,FR,Île-de-France,,34347,34347
Villenave-d’Ornon,44.7806,-0.5658,France,FR,Nouvelle-Aquitaine,,34090,34090
Le Perreux-Sur-Marne,48.8422,2.5036,France,FR,Île-de-France,,33879,33793
Mâcon,46.3063,4.8313,France,FR,Bourgogne-Franche-Comté,minor,33638,33638
Agen,44.2049,0.6212,France,FR,Nouvelle-Aquitaine,minor,33576,33012
Villeneuve-Saint-Georges,48.7325,2.4497,France,FR,Île-de-France,,33545,33545
Meyzieu,45.7667,5.0036,France,FR,Auvergne-Rhône-Alpes,,33477,33477
Vitrolles,43.4600,5.2486,France,FR,Provence-Alpes-Côte d’Azur,,33310,33101
Châtenay-Malabry,48.7653,2.2781,France,FR,Île-de-France,,33286,33286
Romans-sur-Isère,45.0464,5.0517,France,FR,Auvergne-Rhône-Alpes,,33160,33160
Nevers,46.9933,3.1572,France,FR,Bourgogne-Franche-Comté,minor,32990,32990
Montigny-le-Bretonneux,48.7711,2.0333,France,FR,Île-de-France,,32929,32575
Marignane,43.4160,5.2145,France,FR,Provence-Alpes-Côte d’Azur,,32920,32793
Nogent-sur-Marne,48.8375,2.4833,France,FR,Île-de-France,minor,32851,32851
Six-Fours-les-Plages,43.1009,5.8200,France,FR,Provence-Alpes-Côte d’Azur,,32829,32829
Les Mureaux,48.9875,1.9172,France,FR,Île-de-France,,32792,32792
Trappes,48.7775,2.0025,France,FR,Île-de-France,,32584,32120
Cambrai,50.1767,3.2356,France,FR,Hauts-de-France,minor,32558,32501
Houilles,48.9261,2.1892,France,FR,Île-de-France,,32151,32151
Schiltigheim,48.6078,7.7500,France,FR,Grand Est,,31894,31894
Châtellerault,46.8178,0.5461,France,FR,Nouvelle-Aquitaine,minor,31840,31733
Vigneux-sur-Seine,48.7001,2.4170,France,FR,Île-de-France,,31574,31463
Plaisir,48.8183,1.9472,France,FR,Île-de-France,,31419,31013
Lens,50.4322,2.8333,France,FR,Hauts-de-France,minor,31415,31415
L’Haÿ-les-Roses,48.7800,2.3374,France,FR,Île-de-France,minor,31204,31204
Saint-Médard-en-Jalles,44.8964,-0.7164,France,FR,Nouvelle-Aquitaine,,31145,31145
Viry-Châtillon,48.6713,2.3750,France,FR,Île-de-France,,31093,30706
Cachan,48.7919,2.3319,France,FR,Île-de-France,,31069,30884
Dreux,48.7372,1.3664,France,FR,Centre-Val de Loire,minor,31044,30664
Liévin,50.4228,2.7786,France,FR,Hauts-de-France,,30785,30423
Pontoise,49.0516,2.1017,France,FR,Île-de-France,,30767,30767
Goussainville,49.0325,2.4747,France,FR,Île-de-France,,30637,30637
Charenton-le-Pont,48.8265,2.4050,France,FR,Île-de-France,,30374,30053
Pierrefitte-sur-Seine,48.9656,2.3614,France,FR,Île-de-France,,30306,30306
Malakoff,48.8169,2.2944,France,FR,Île-de-France,,30286,30286
Chatou,48.8897,2.1573,France,FR,Île-de-France,,30253,30253
Rillieux-la-Pape,45.8214,4.8983,France,FR,Auvergne-Rhône-Alpes,,30012,30012
Vandœuvre-lès-Nancy,48.6567,6.1683,France,FR,Grand Est,,30002,30002
Savigny-le-Temple,48.5841,2.5832,France,FR,Île-de-France,,29984,29792
Saint-Cloud,48.8400,2.2200,France,FR,Île-de-France,,29973,29973
Périgueux,45.1929,0.7217,France,FR,Nouvelle-Aquitaine,minor,29966,29966
Villemomble,48.8833,2.5000,France,FR,Île-de-France,,29964,29964
Maubeuge,50.2775,3.9734,France,FR,Hauts-de-France,,29944,29632
Aix-les-Bains,45.6885,5.9153,France,FR,Auvergne-Rhône-Alpes,,29794,29794
Mont-de-Marsan,43.8900,-0.5000,France,FR,Nouvelle-Aquitaine,minor,29554,29554
Bezons,48.9261,2.2178,France,FR,Île-de-France,,29383,29383
Clichy-sous-Bois,48.9102,2.5532,France,FR,Île-de-France,,29348,28992
Vienne,45.5242,4.8781,France,FR,Auvergne-Rhône-Alpes,minor,29306,29306
Ris-Orangis,48.6537,2.4161,France,FR,Île-de-France,,29225,29225
La Garenne-Colombes,48.9056,2.2445,France,FR,Île-de-France,,29169,29169
Ermont,48.9922,2.2603,France,FR,Île-de-France,,29108,29079
Le Plessis-Robinson,48.7811,2.2633,France,FR,Île-de-France,,29100,29100
Dieppe,49.9200,1.0800,France,FR,Normandie,minor,29080,28561
Yerres,48.7171,2.4881,France,FR,Île-de-France,,29029,29029
Thiais,48.7650,2.3923,France,FR,Île-de-France,,29017,29017
Sotteville-lès-Rouen,49.4092,1.0900,France,FR,Normandie,,28965,28958
Menton,43.7750,7.5000,France,FR,Provence-Alpes-Côte d’Azur,,28958,28958
Orange,44.1383,4.8097,France,FR,Provence-Alpes-Côte d’Azur,,28919,28919
Draveil,48.6852,2.4080,France,FR,Île-de-France,,28833,28741
Grigny,48.6562,2.3849,France,FR,Île-de-France,,28737,28265
Saint-Étienne-du-Rouvray,49.3786,1.1050,France,FR,Normandie,,28641,28500
Guyancourt,48.7714,2.0739,France,FR,Île-de-France,,28633,28633
Agde,43.3108,3.4758,France,FR,Occitanie,,28609,28609
Décines-Charpieu,45.7694,4.9594,France,FR,Auvergne-Rhône-Alpes,,28602,28602
Bègles,44.8086,-0.5478,France,FR,Nouvelle-Aquitaine,,28601,28601
Soissons,49.3817,3.3236,France,FR,Hauts-de-France,minor,28530,28522
Villiers-sur-Marne,48.8275,2.5447,France,FR,Île-de-France,,28456,28456
Saint-Laurent-du-Var,43.6680,7.1880,France,FR,Provence-Alpes-Côte d’Azur,,28453,28453
Bourgoin-Jallieu,45.5861,5.2736,France,FR,Auvergne-Rhône-Alpes,,28387,28387
Carpentras,44.0558,5.0489,France,FR,Provence-Alpes-Côte d’Azur,minor,28309,28309
Bois-Colombes,48.9175,2.2683,France,FR,Île-de-France,,28239,28239
Lomme,50.6455,2.9876,France,FR,Hauts-de-France,,28006,28006
Fresnes,48.7550,2.3221,France,FR,Île-de-France,,27802,27802
Vanves,48.8208,2.2897,France,FR,Île-de-France,,27729,27466
Le Chesnay,48.8203,2.1303,France,FR,Île-de-France,,27683,27683
Villiers-le-Bel,49.0094,2.3911,France,FR,Île-de-France,,27676,27676
Lambersart,50.6500,3.0250,France,FR,Hauts-de-France,,27649,27415
Romainville,48.8840,2.4350,France,FR,Île-de-France,,27567,27567
Bussy-Saint-Georges,48.8422,2.6983,France,FR,Île-de-France,,27379,26806
Limeil-Brévannes,48.7464,2.4883,France,FR,Île-de-France,,27228,27228
Tournefeuille,43.5853,1.3442,France,FR,Occitanie,,26962,26962
Saint-Sébastien-sur-Loire,47.2081,-1.5014,France,FR,Pays de la Loire,,26838,26838
Bergerac,44.8500,0.4800,France,FR,Nouvelle-Aquitaine,minor,26833,26823
Montfermeil,48.9000,2.5667,France,FR,Île-de-France,,26783,26783
Illkirch-Graffenstaden,48.5300,7.7200,France,FR,Grand Est,,26780,26780
Rambouillet,48.6444,1.8308,France,FR,Île-de-France,minor,26736,26736
Saumur,47.2600,-0.0769,France,FR,Pays de la Loire,minor,26734,26599
Vallauris,43.5805,7.0538,France,FR,Provence-Alpes-Côte d’Azur,,26672,26672
Sannois,48.9722,2.2578,France,FR,Île-de-France,,26662,26484
Cavaillon,43.8375,5.0381,France,FR,Provence-Alpes-Côte d’Azur,,26641,26198
Brétigny-sur-Orge,48.6114,2.3059,France,FR,Île-de-France,,26528,26528
Sucy-en-Brie,48.7697,2.5228,France,FR,Île-de-France,,26472,26472
Miramas,43.5822,5.0019,France,FR,Provence-Alpes-Côte d’Azur,,26470,26470
Taverny,49.0264,2.2275,France,FR,Île-de-France,,26441,26441
Orvault,47.2717,-1.6225,France,FR,Pays de la Loire,,26355,26355
Villeparisis,48.9503,2.6025,France,FR,Île-de-France,,26322,26322
Saint-Dizier,48.6383,4.9497,France,FR,Grand Est,minor,26300,23382
Oullins,45.7150,4.8083,France,FR,Auvergne-Rhône-Alpes,,26273,26273
Lunel,43.6778,4.1361,France,FR,Occitanie,,26239,26239
La Teste-de-Buch,44.6200,-1.1457,France,FR,Nouvelle-Aquitaine,,26078,26078
Hénin-Beaumont,50.4217,2.9508,France,FR,Hauts-de-France,,26022,25917
Gonesse,48.9875,2.4494,France,FR,Île-de-France,,25999,25999
Sens,48.1975,3.2877,France,FR,Bourgogne-Franche-Comté,minor,25935,25935
Vierzon,47.2225,2.0694,France,FR,Centre-Val de Loire,minor,25903,25725
Alençon,48.4306,0.0931,France,FR,Normandie,minor,25848,25775
Le Grand-Quevilly,49.4072,1.0531,France,FR,Normandie,,25698,25698
Brunoy,48.6979,2.5044,France,FR,Île-de-France,,25669,25354
Gradignan,44.7725,-0.6156,France,FR,Nouvelle-Aquitaine,,25552,25435
Aurillac,44.9261,2.4406,France,FR,Auvergne-Rhône-Alpes,minor,25499,25499
Saintes,45.7464,-0.6333,France,FR,Nouvelle-Aquitaine,minor,25470,25148
Biarritz,43.4800,-1.5600,France,FR,Nouvelle-Aquitaine,,25404,25404
Élancourt,48.7847,1.9589,France,FR,Île-de-France,,25400,25400
Montbéliard,47.5100,6.8000,France,FR,Bourgogne-Franche-Comté,minor,25395,25395
Le Kremlin-Bicêtre,48.8100,2.3581,France,FR,Île-de-France,,25334,24850
La Garde,43.1256,6.0108,France,FR,Provence-Alpes-Côte d’Azur,,25126,25126
Eaubonne,48.9922,2.2806,France,FR,Île-de-France,,25097,25097
Étampes,48.4343,2.1615,France,FR,Île-de-France,minor,25092,25092
Champs-Sur-Marne,48.8529,2.6027,France,FR,Île-de-France,,25041,25041
Muret,43.4611,1.3267,France,FR,Occitanie,minor,24945,24813
Béthune,50.5303,2.6408,France,FR,Hauts-de-France,minor,24895,24895
Armentières,50.6881,2.8811,France,FR,Hauts-de-France,,24882,24778
Laon,49.5639,3.6244,France,FR,Hauts-de-France,minor,24876,24710
Libourne,44.9200,-0.2400,France,FR,Nouvelle-Aquitaine,minor,24845,24511
Cenon,44.8578,-0.5317,France,FR,Nouvelle-Aquitaine,,24729,24729
Fontenay-aux-Roses,48.7893,2.2888,France,FR,Île-de-France,,24564,24564
Blagnac,43.6364,1.3906,France,FR,Occitanie,,24517,24517
Vertou,47.1689,-1.4697,France,FR,Pays de la Loire,,24219,24219
Vichy,46.1278,3.4267,France,FR,Auvergne-Rhône-Alpes,minor,24166,24166
Cormeilles-en-Parisis,48.9739,2.2014,France,FR,Île-de-France,,24161,24161
Rochefort,45.9421,-0.9588,France,FR,Nouvelle-Aquitaine,minor,24151,23583
Rodez,44.3506,2.5750,France,FR,Occitanie,minor,24057,24057
Les Pavillons-sous-Bois,48.9000,2.5000,France,FR,Île-de-France,,23962,23960
La Valette-du-Var,43.1383,5.9831,France,FR,Provence-Alpes-Côte d’Azur,,23884,23795
Vernon,49.0900,1.4900,France,FR,Normandie,,23872,23777
Le Bouscat,44.8651,-0.5996,France,FR,Nouvelle-Aquitaine,,23824,23824
Orly,48.7439,2.3928,France,FR,Île-de-France,,23801,23801
Montgeron,48.7039,2.4605,France,FR,Île-de-France,,23775,23775
Villeneuve-la-Garenne,48.9372,2.3278,France,FR,Île-de-France,,23771,23771
Saint-Ouen-l’Aumône,49.0447,2.1111,France,FR,Île-de-France,,23741,23741
Dole,47.0931,5.4906,France,FR,Bourgogne-Franche-Comté,minor,23708,23708
Maisons-Laffitte,48.9469,2.1456,France,FR,Île-de-France,,23669,23611
Lormont,44.8792,-0.5217,France,FR,Nouvelle-Aquitaine,,23538,23128
Sèvres,48.8239,2.2117,France,FR,Île-de-France,,23507,23251
Eysines,44.8853,-0.6500,France,FR,Nouvelle-Aquitaine,,23462,23462
Les Lilas,48.8800,2.4200,France,FR,Île-de-France,,23045,23045
Roissy-en-Brie,48.7906,2.6519,France,FR,Île-de-France,,22994,22836
Grande-Synthe,51.0139,2.3028,France,FR,Hauts-de-France,,22966,22777
Hérouville-Saint-Clair,49.2044,-0.3253,France,FR,Normandie,,22954,22638
Abbeville,50.1058,1.8358,France,FR,Hauts-de-France,minor,22946,22837
Frontignan,43.4483,3.7561,France,FR,Occitanie,,22762,22731
Lanester,47.7647,-3.3422,France,FR,Bretagne,,22728,22728
Épernay,49.0403,3.9600,France,FR,Grand Est,minor,22671,22330
Saint-Mandé,48.8422,2.4186,France,FR,Île-de-France,,22619,22248
Torcy,48.8502,2.6508,France,FR,Île-de-France,minor,22568,22361
Fontaine,45.1939,5.6856,France,FR,Auvergne-Rhône-Alpes,,22523,22523
Mandelieu-la-Napoule,43.5464,6.9381,France,FR,Provence-Alpes-Côte d’Azur,,22452,21836
Oyonnax,46.2561,5.6556,France,FR,Auvergne-Rhône-Alpes,,22427,22336
Combs-la-Ville,48.6700,2.5600,France,FR,Île-de-France,,22383,21811
Manosque,43.8342,5.7839,France,FR,Provence-Alpes-Côte d’Azur,,22333,22333
Deuil-la-Barre,48.9767,2.3272,France,FR,Île-de-France,,22306,22165
Tassin-la-Demi-Lune,45.7640,4.7800,France,FR,Auvergne-Rhône-Alpes,,22297,22297
Loos,50.6128,3.0144,France,FR,Hauts-de-France,,22233,22233
Millau,44.0986,3.0783,France,FR,Occitanie,minor,22109,22002
Villeneuve-sur-Lot,44.4081,0.7050,France,FR,Nouvelle-Aquitaine,minor,22064,21915
Vélizy-Villacoublay,48.7834,2.1834,France,FR,Île-de-France,,22036,22036
Sainte-Foy-lès-Lyon,45.7300,4.8000,France,FR,Auvergne-Rhône-Alpes,,22012,22012
Le Petit-Quevilly,49.4311,1.0539,France,FR,Normandie,,21995,21995
Olivet,47.8639,1.9006,France,FR,Centre-Val de Loire,,21951,21951
Chaumont,48.1117,5.1389,France,FR,Grand Est,minor,21945,21945
Auch,43.6465,0.5855,France,FR,Occitanie,minor,21935,21935
Dammarie-lè-Lys,48.5177,2.6402,France,FR,Île-de-France,,21835,21835
Montigny-lès-Metz,49.1006,6.1539,France,FR,Grand Est,,21819,21749
Le Creusot,46.8014,4.4411,France,FR,Bourgogne-Franche-Comté,,21630,21491
Montigny-lès-Cormeilles,48.9944,2.1958,France,FR,Île-de-France,,21601,21601
Seynod,45.8889,6.0961,France,FR,Auvergne-Rhône-Alpes,,21595,21595
Forbach,49.1900,6.9000,France,FR,Grand Est,minor,21552,21552
Arcueil,48.8075,2.3361,France,FR,Île-de-France,,21501,21501
Montmorency,48.9906,2.3228,France,FR,Île-de-France,,21461,21461
Hazebrouck,50.7250,2.5392,France,FR,Hauts-de-France,,21441,21353
Annecy-le-Vieux,45.9192,6.1419,France,FR,Auvergne-Rhône-Alpes,,21390,21390
Villeneuve-le-Roi,48.7333,2.4167,France,FR,Île-de-France,,21384,21214
Gif-sur-Yvette,48.7018,2.1339,France,FR,Île-de-France,,21379,21308
Couëron,47.2156,-1.7228,France,FR,Pays de la Loire,,21372,21372
Thorigny-sur-Marne,48.8788,2.7075,France,FR,Île-de-France,,21356,10263
Longjumeau,48.6943,2.2958,France,FR,Île-de-France,,21221,20964
Saint-Genis-Laval,45.6960,4.7930,France,FR,Auvergne-Rhône-Alpes,,21217,21019
Allauch,43.3369,5.4828,France,FR,Provence-Alpes-Côte d’Azur,,21187,20860
Saint-Louis,47.5900,7.5700,France,FR,Grand Est,,21177,21177
La Madeleine,50.6558,3.0710,France,FR,Hauts-de-France,,21173,21173
Gujan-Mestras,44.6364,-1.0667,France,FR,Nouvelle-Aquitaine,,21152,21152
Neuilly-Plaisance,48.8619,2.5064,France,FR,Île-de-France,,21150,20915
Coudekerque-Branche,51.0253,2.3917,France,FR,Hauts-de-France,,21134,20925
Les Pennes-Mirabeau,43.4106,5.3103,France,FR,Provence-Alpes-Côte d’Azur,,21046,21046
Croix,50.6781,3.1508,France,FR,Hauts-de-France,,21041,21041
Beaune,47.0250,4.8397,France,FR,Bourgogne-Franche-Comté,minor,21031,20711
Fleury-les-Aubrais,47.9512,1.8745,France,FR,Centre-Val de Loire,,21026,21026
Achères,48.9602,2.0684,France,FR,Île-de-France,,21017,21017
La Celle-Saint-Cloud,48.8411,2.1344,France,FR,Île-de-France,,20966,20830
Morsang-sur-Orge,48.6618,2.3461,France,FR,Île-de-France,,20909,20619
Le Mée-sur-Seine,48.5333,2.6289,France,FR,Île-de-France,,20816,20816
Halluin,50.7836,3.1256,France,FR,Hauts-de-France,,20800,20800
Gardanne,43.4553,5.4760,France,FR,Provence-Alpes-Côte d’Azur,,20794,20794
Sarreguemines,49.1100,7.0700,France,FR,Grand Est,minor,20783,20783
Mons-en-Baroeul,50.6369,3.1103,France,FR,Hauts-de-France,,20782,20782
Saint-Jean-de-Braye,47.9128,1.9719,France,FR,Centre-Val de Loire,,20751,20751
Saint-Gratien,48.9719,2.2828,France,FR,Île-de-France,,20682,20682
Dax,43.7100,-1.0500,France,FR,Nouvelle-Aquitaine,minor,20681,20681
Bourg-la-Reine,48.7796,2.3151,France,FR,Île-de-France,,20667,20667
Challans,46.8467,-1.8781,France,FR,Pays de la Loire,,20662,20662
Chaville,48.8086,2.1886,France,FR,Île-de-France,,20520,20520
Castelnau-le-Lez,43.6369,3.9019,France,FR,Occitanie,,20480,20480
Saint-Pol-sur-Mer,51.0314,2.3439,France,FR,Hauts-de-France,,20479,20479
Wasquehal,50.6694,3.1308,France,FR,Hauts-de-France,,20479,20479
Mantes-la-Ville,48.9750,1.7117,France,FR,Île-de-France,,20452,20452
Fougères,48.3525,-1.1986,France,FR,Bretagne,minor,20418,20418
Pertuis,43.6950,5.5036,France,FR,Provence-Alpes-Côte d’Azur,,20380,20380
Mitry-Mory,48.9839,2.6164,France,FR,Île-de-France,,20353,20353
Ozoir-la-Ferrière,48.7780,2.6800,France,FR,Île-de-France,,20331,20191
Lisieux,49.1500,0.2300,France,FR,Normandie,minor,20318,20171
Montereau-faut-Yonne,48.3853,2.9508,France,FR,Île-de-France,,20206,20206
Chilly-Mazarin,48.7025,2.3125,France,FR,Île-de-France,,20181,19858
Le Plessis-Trévise,48.8111,2.5717,France,FR,Île-de-France,,20130,20025
Givors,45.5906,4.7689,France,FR,Auvergne-Rhône-Alpes,,20121,20121
Voiron,45.3642,5.5906,France,FR,Auvergne-Rhône-Alpes,,20108,20108
Cournon-d’Auvergne,45.7422,3.1972,France,FR,Auvergne-Rhône-Alpes,,20043,20043
Lannion,48.7325,-3.4553,France,FR,Bretagne,minor,20040,20040
Nogent-sur-Oise,49.2756,2.4683,France,FR,Hauts-de-France,,20033,20033
Carquefou,47.2969,-1.4928,France,FR,Pays de la Loire,,20032,20032
Saint-Michel-sur-Orge,48.6325,2.3028,France,FR,Île-de-France,,19965,19965
Denain,50.3286,3.3950,France,FR,Hauts-de-France,,19933,19933
Cahors,44.4475,1.4406,France,FR,Occitanie,minor,19907,19907
Bourg-lès-Valence,44.9475,4.8953,France,FR,Auvergne-Rhône-Alpes,,19889,19889
Chevilly-Larue,48.7664,2.3533,France,FR,Île-de-France,,19863,19863
Bressuire,46.8400,-0.4886,France,FR,Nouvelle-Aquitaine,minor,19733,19733
Saint-Dié-des-Vosges,48.2842,6.9492,France,FR,Grand Est,minor,19724,19724
L’Isle-sur-la-Sorgue,43.9194,5.0514,France,FR,Provence-Alpes-Côte d’Azur,,19706,19706
Bouguenais,47.1775,-1.6214,France,FR,Pays de la Loire,,19658,19658
Sceaux,48.7786,2.2906,France,FR,Île-de-France,,19606,19606
Moulins,46.5647,3.3325,France,FR,Auvergne-Rhône-Alpes,minor,19563,19563
La Chapelle-sur-Erdre,47.2989,-1.5528,France,FR,Pays de la Loire,,19526,19526
Joinville-le-Pont,48.8214,2.4728,France,FR,Île-de-France,,19516,19516
Concarneau,47.8753,-3.9189,France,FR,Bretagne,,19502,19502
Mougins,43.6000,6.9947,France,FR,Provence-Alpes-Côte d’Azur,,19489,19489
Ronchin,50.6047,3.0878,France,FR,Hauts-de-France,,19477,19477
Sélestat,48.2594,7.4542,France,FR,Grand Est,minor,19360,19360
Mont-Saint-Aignan,49.4625,1.0872,France,FR,Normandie,,19262,19262
Saint-Fons,45.7086,4.8533,France,FR,Auvergne-Rhône-Alpes,,19254,19254
Albertville,45.6758,6.3925,France,FR,Auvergne-Rhône-Alpes,minor,19214,19214
Le Puy-en-Velay,45.0433,3.8850,France,FR,Auvergne-Rhône-Alpes,minor,19061,19061
Saint-Lô,49.1144,-1.0917,France,FR,Normandie,minor,19024,19024
Saint-Cyr-l’École,48.8003,2.0625,France,FR,Île-de-France,,19011,19011
Riom,45.8936,3.1125,France,FR,Auvergne-Rhône-Alpes,minor,19011,19011
Lingolsheim,48.5575,7.6831,France,FR,Grand Est,,18930,18930
Plaisance-du-Touch,43.5656,1.2964,France,FR,Occitanie,,18888,18888
Villefontaine,45.6133,5.1486,France,FR,Auvergne-Rhône-Alpes,,18808,18808
Sorgues,44.0083,4.8725,France,FR,Provence-Alpes-Côte d’Azur,,18802,18802
Vence,43.7225,7.1119,France,FR,Provence-Alpes-Côte d’Azur,,18670,18670
Cognac,45.6958,-0.3292,France,FR,Nouvelle-Aquitaine,minor,18628,18628
Hem,50.6553,3.1878,France,FR,Hauts-de-France,,18621,18621
Écully,45.7744,4.7775,France,FR,Auvergne-Rhône-Alpes,,18587,18587
Gentilly,48.8133,2.3444,France,FR,Île-de-France,,18577,18577
Bruz,48.0247,-1.7458,France,FR,Bretagne,,18516,18516
La Crau,43.1497,6.0742,France,FR,Provence-Alpes-Côte d’Azur,,18506,18506
Royan,45.6231,-1.0431,France,FR,Nouvelle-Aquitaine,,18499,18499
Hellemmes-Lille,50.6283,3.1100,France,FR,Hauts-de-France,,18437,18437
Louviers,49.2153,1.1656,France,FR,Normandie,,18348,18348
Cran-Gévrier,45.9036,6.1039,France,FR,Auvergne-Rhône-Alpes,,18330,18330
Bruges,44.8828,-0.6125,France,FR,Nouvelle-Aquitaine,,18316,18316
Cugnaux,43.5378,1.3436,France,FR,Occitanie,,18267,18267
Vitré,48.1233,-1.2094,France,FR,Bretagne,,18267,18267
Fécamp,49.7575,0.3792,France,FR,Normandie,,18251,18251
Soisy-sous-Montmorency,48.9878,2.2997,France,FR,Île-de-France,,18243,18243
Brie-Comte-Robert,48.6925,2.6111,France,FR,Île-de-France,,18237,18237
Fâches-Thumesnil,50.5989,3.0736,France,FR,Hauts-de-France,,18165,18165
Éragny,49.0172,2.0914,France,FR,Île-de-France,,18162,18162
Chennevières-sur-Marne,48.7983,2.5339,France,FR,Île-de-France,,18142,18142
Bagnols-sur-Cèze,44.1625,4.6200,France,FR,Occitanie,,18072,18072
Bonneuil-sur-Marne,48.7742,2.4875,France,FR,Île-de-France,,18045,18045
Lunéville,48.5894,6.5017,France,FR,Grand Est,minor,18027,18027
Maurepas,48.7628,1.9456,France,FR,Île-de-France,,18019,18019
Montceau-les-Mines,46.6669,4.3689,France,FR,Bourgogne-Franche-Comté,,17897,17897
Floirac,44.8364,-0.5258,France,FR,Nouvelle-Aquitaine,,17882,17882
Moissy-Cramayel,48.6261,2.5922,France,FR,Île-de-France,,17882,17882
Ploemeur,47.7358,-3.4311,France,FR,Bretagne,,17790,17790
Garches,48.8456,2.1869,France,FR,Île-de-France,,17762,17762
Avion,50.4097,2.8328,France,FR,Hauts-de-France,,17583,17583
Les Clayes-sous-Bois,48.8206,1.9836,France,FR,Île-de-France,,17560,17560
Marmande,44.5000,0.1653,France,FR,Nouvelle-Aquitaine,minor,17534,17534
Le Pré-Saint-Gervais,48.8850,2.4039,France,FR,Île-de-France,,17485,17485
Meylan,45.2086,5.7794,France,FR,Auvergne-Rhône-Alpes,,17448,17448
Châteauneuf-les-Martigues,43.3831,5.1642,France,FR,Provence-Alpes-Côte d’Azur,,17425,17425
Osny,49.0592,2.0625,France,FR,Île-de-France,,17402,17402
Carvin,50.4931,2.9581,France,FR,Hauts-de-France,,17399,17399
Pontarlier,46.9061,6.3547,France,FR,Bourgogne-Franche-Comté,minor,17393,17393
Brignoles,43.4058,6.0617,France,FR,Provence-Alpes-Côte d’Azur,minor,17364,17364
Lons-le-Saunier,46.6744,5.5539,France,FR,Bourgogne-Franche-Comté,minor,17320,17320
Cesson-Sévigné,48.1208,-1.6036,France,FR,Bretagne,,17312,17312
Le Pontet,43.9642,4.8600,France,FR,Provence-Alpes-Côte d’Azur,,17273,17273
Chamalières,45.7736,3.0669,France,FR,Auvergne-Rhône-Alpes,,17210,17210
Verdun,49.1597,5.3828,France,FR,Grand Est,minor,17161,17161
Limay,48.9933,1.7358,France,FR,Île-de-France,,17147,17147
Bischheim,48.6139,7.7519,France,FR,Grand Est,,17137,17137
Juvisy-sur-Orge,48.6883,2.3775,France,FR,Île-de-France,,17007,17007
Cluses,46.0603,6.5786,France,FR,Auvergne-Rhône-Alpes,,16996,16996
Firminy,45.3881,4.2872,France,FR,Auvergne-Rhône-Alpes,,16981,16981
Cestas,44.7444,-0.6822,France,FR,Nouvelle-Aquitaine,,16936,16936
Bry-sur-Marne,48.8411,2.5222,France,FR,Île-de-France,,16919,16919
Hendaye,43.3586,-1.7744,France,FR,Nouvelle-Aquitaine,,16805,16805
Mauguio,43.6164,4.0075,France,FR,Occitanie,,16735,16735
Lattes,43.5678,3.9021,France,FR,Occitanie,,16710,16710
Sanary-sur-Mer,43.1192,5.8022,France,FR,Provence-Alpes-Côte d’Azur,,16696,16696
Yutz,49.3589,6.1886,France,FR,Grand Est,,16633,16633
Vauréal,49.0300,2.0214,France,FR,Île-de-France,,16575,16575
Saint-Maximin-la-Sainte-Baume,43.4533,5.8619,France,FR,Provence-Alpes-Côte d’Azur,,16574,16574
Port-de-Bouc,43.4050,4.9886,France,FR,Provence-Alpes-Côte d’Azur,,16569,16569
Ambarès-et-Lagrave,44.9247,-0.4867,France,FR,Nouvelle-Aquitaine,,16563,16563
Balma,43.6103,1.4986,France,FR,Occitanie,,16520,16520
Sallanches,45.9364,6.6319,France,FR,Auvergne-Rhône-Alpes,,16508,16508
Boissy-Saint-Léger,48.7503,2.5097,France,FR,Île-de-France,,16487,16487
Saint-Jean-de-la-Ruelle,47.9131,1.8733,France,FR,Centre-Val de Loire,,16445,16445
Viroflay,48.8000,2.1722,France,FR,Île-de-France,,16406,16406
Saran,47.9514,1.8803,France,FR,Centre-Val de Loire,,16344,16344
Marly-le-Roi,48.8669,2.0942,France,FR,Île-de-France,,16335,16335
Digne-les-Bains,44.0925,6.2356,France,FR,Provence-Alpes-Côte d’Azur,minor,16333,16333
Annonay,45.2400,4.6708,France,FR,Auvergne-Rhône-Alpes,,16288,16288
Carrières-sous-Poissy,48.9478,2.0386,France,FR,Île-de-France,,16248,16248
Jouy-le-Moutier,49.0108,2.0386,France,FR,Île-de-France,,16214,16214
Elbeuf,49.2858,1.0083,France,FR,Normandie,,16205,16205
Sedan,49.7019,4.9403,France,FR,Grand Est,minor,16193,16193
L’Isle-d’Abeau,45.6194,5.2331,France,FR,Auvergne-Rhône-Alpes,,16169,16169
Le Bourget,48.9344,2.4244,France,FR,Île-de-France,,16139,16139
Les Herbiers,46.8711,-1.0136,France,FR,Pays de la Loire,,16135,16135
Vendôme,47.7928,1.0656,France,FR,Centre-Val de Loire,minor,16133,16133
Escoublac,47.2858,-2.3922,France,FR,Pays de la Loire,,16117,16117
Guérande,47.3281,-2.4292,France,FR,Pays de la Loire,,16107,16107
Saint-Amand-les-Eaux,50.4481,3.4269,France,FR,Hauts-de-France,,16053,16053
Tourlaville,49.6408,-1.5789,France,FR,Normandie,,16040,16040
Châteaurenard,43.8825,4.8550,France,FR,Provence-Alpes-Côte d’Azur,,16012,16012
Saint-Cyr-sur-Loire,47.4028,0.6781,France,FR,Centre-Val de Loire,,15991,15991
Verneuil-sur-Seine,48.9797,1.9739,France,FR,Île-de-France,,15982,15982
Le Pecq,48.8967,2.1061,France,FR,Île-de-France,,15949,15949
Landerneau,48.4508,-4.2494,France,FR,Bretagne,,15914,15914
Hayange,49.3297,6.0619,France,FR,Grand Est,,15888,15888
Le Vésinet,48.8939,2.1322,France,FR,Île-de-France,,15865,15865
Hennebont,47.8042,-3.2789,France,FR,Bretagne,,15858,15858
Orsay,48.6981,2.1875,France,FR,Île-de-France,,15844,15844
Saint-Leu-la-Forêt,49.0169,2.2464,France,FR,Île-de-France,,15829,15829
Saint-Égrève,45.2317,5.6831,France,FR,Auvergne-Rhône-Alpes,,15801,15801
Villeneuve-Loubet,43.6581,7.1214,France,FR,Provence-Alpes-Côte d’Azur,,15780,15780
Saint-Pierre-des-Corps,47.3908,0.7281,France,FR,Centre-Val de Loire,,15766,15766
Beaucaire,43.8072,4.6433,France,FR,Occitanie,,15718,15718
Noisiel,48.8547,2.6289,France,FR,Île-de-France,,15676,15676
Montbrison,45.6075,4.0653,France,FR,Auvergne-Rhône-Alpes,minor,15656,15656
Pamiers,43.1164,1.6108,France,FR,Occitanie,minor,15603,15603
Fos-sur-Mer,43.4544,4.9436,France,FR,Provence-Alpes-Côte d’Azur,,15602,15602
Pornic,47.1156,-2.1033,France,FR,Pays de la Loire,,15570,15570
Montivilliers,49.5461,0.1881,France,FR,Normandie,,15564,15564
Sin-le-Noble,50.3631,3.1131,France,FR,Hauts-de-France,,15522,15522
Blanquefort,44.9106,-0.6375,France,FR,Nouvelle-Aquitaine,,15510,15510
Saint-Julien-en-Genevois,46.1442,6.0842,France,FR,Auvergne-Rhône-Alpes,minor,15509,15509
Toul,48.6750,5.8917,France,FR,Grand Est,minor,15470,15470
Lucé,48.4383,1.4650,France,FR,Centre-Val de Loire,,15435,15435
Saint-Avold,49.1042,6.7081,France,FR,Grand Est,,15433,15433
Domont,49.0275,2.3267,France,FR,Île-de-France,,15418,15418
Fontainebleau,48.4089,2.7017,France,FR,Île-de-France,minor,15407,15407
Rumilly,45.8667,5.9444,France,FR,Auvergne-Rhône-Alpes,,15373,15373
Château-Thierry,49.0464,3.4031,France,FR,Hauts-de-France,minor,15351,15351
Gaillac,43.9006,1.8983,France,FR,Occitanie,,15345,15345
Sainte-Luce-sur-Loire,47.2494,-1.4867,France,FR,Pays de la Loire,,15238,15238
Bois-d’Arcy,48.8014,2.0317,France,FR,Île-de-France,,15220,15220
Issoire,45.5442,3.2489,France,FR,Auvergne-Rhône-Alpes,minor,15214,15214
Tarascon,43.8050,4.6594,France,FR,Provence-Alpes-Côte d’Azur,,15195,15195
Rive-de-Gier,45.5294,4.6169,France,FR,Auvergne-Rhône-Alpes,,15105,15105
Olonne-sur-Mer,46.5361,-1.7728,France,FR,Pays de la Loire,,15061,15061
Saint-Rambert,45.4994,4.2400,France,FR,Auvergne-Rhône-Alpes,,15034,15034
Bailleul,50.7375,2.7339,France,FR,Hauts-de-France,,15019,15019
Montesson,48.9086,2.1494,France,FR,Île-de-France,,15013,15013
Vesoul,47.6222,6.1553,France,FR,Bourgogne-Franche-Comté,minor,14973,14973
Saint-Avertin,47.3667,0.7267,France,FR,Centre-Val de Loire,,14968,14968
Verrières-le-Buisson,48.7475,2.2628,France,FR,Île-de-France,,14941,14941
La Flèche,47.6997,-0.0761,France,FR,Pays de la Loire,minor,14902,14902
Senlis,49.2072,2.5867,France,FR,Hauts-de-France,minor,14891,14891
Pontivy,48.0686,-2.9628,France,FR,Bretagne,minor,14889,14889
Saint-Brice-sous-Forêt,48.9986,2.3569,France,FR,Île-de-France,,14875,14875
Guipavas,48.4336,-4.4008,France,FR,Bretagne,,14842,14842
Valenton,48.7450,2.4672,France,FR,Île-de-France,,14837,14837
Crépy-en-Valois,49.2344,2.8875,France,FR,Hauts-de-France,,14796,14796
Montargis,47.9969,2.7325,France,FR,Centre-Val de Loire,minor,14789,14789
Bouc-Bel-Air,43.4544,5.4144,France,FR,Provence-Alpes-Côte d’Azur,,14784,14784
Flers,48.7483,-0.5694,France,FR,Normandie,,14779,14779
Haubourdin,50.6092,2.9869,France,FR,Hauts-de-France,,14775,14775
Trélazé,47.4461,-0.4664,France,FR,Pays de la Loire,,14759,14759
Coulommiers,48.8156,3.0836,France,FR,Île-de-France,,14757,14757
Wattignies,50.5850,3.0431,France,FR,Hauts-de-France,,14736,14736
Bar-le-Duc,48.7717,5.1672,France,FR,Grand Est,minor,14733,14733
Longwy,49.5197,5.7606,France,FR,Grand Est,,14730,14730
Morlaix,48.5775,-3.8278,France,FR,Bretagne,minor,14729,14729
Saint-Omer,50.7483,2.2608,France,FR,Hauts-de-France,minor,14726,14726
Le Raincy,48.8992,2.5231,France,FR,Île-de-France,minor,14708,14708
Tulle,45.2658,1.7722,France,FR,Nouvelle-Aquitaine,minor,14705,14705
Illzach,47.7822,7.3481,France,FR,Grand Est,,14680,14680
Mennecy,48.5653,2.4361,France,FR,Île-de-France,,14679,14679
Francheville,45.7364,4.7636,France,FR,Auvergne-Rhône-Alpes,,14656,14656
Roquebrune-sur-Argens,43.4433,6.6378,France,FR,Provence-Alpes-Côte d’Azur,,14626,14626
Méru,49.2358,2.1350,France,FR,Hauts-de-France,,14609,14609
Hautmont,50.2481,3.9244,France,FR,Hauts-de-France,,14601,14601
Villers-lès-Nancy,48.6731,6.1547,France,FR,Grand Est,,14558,14558
Wittenheim,47.8075,7.3369,France,FR,Grand Est,,14541,14541
Caudry,50.1250,3.4117,France,FR,Hauts-de-France,,14487,14487
Ramonville-Saint-Agne,43.5461,1.4756,France,FR,Occitanie,,14467,14467
Pont-à-Mousson,48.9044,6.0542,France,FR,Grand Est,,14434,14434
Château-d’Olonne,46.5042,-1.7372,France,FR,Pays de la Loire,,14411,14411
Arnouville-lès-Gonesse,48.9872,2.4167,France,FR,Île-de-France,,14329,14329
Romilly-sur-Seine,48.5158,3.7267,France,FR,Grand Est,,14328,14328
Bois-Guillaume,49.4700,1.1194,France,FR,Normandie,,14309,14309
Laxou,48.6856,6.1522,France,FR,Grand Est,,14300,14300
Dinan,48.4556,-2.0503,France,FR,Bretagne,minor,14281,14281
Lognes,48.8361,2.6278,France,FR,Île-de-France,,14268,14268
Canteleu,49.4511,1.0361,France,FR,Normandie,,14244,14244
Fameck,49.2992,6.1097,France,FR,Grand Est,,14243,14243
Sainte-Maxime,43.3089,6.6378,France,FR,Provence-Alpes-Côte d’Azur,,14240,14240
Chenôve,47.2911,5.0072,France,FR,Bourgogne-Franche-Comté,,14216,14216
Ambérieu-en-Bugey,45.9581,5.3578,France,FR,Auvergne-Rhône-Alpes,,14204,14204
Saint-Jean-de-Luz,43.3903,-1.6597,France,FR,Nouvelle-Aquitaine,,14198,14198
Plérin,48.5344,-2.7708,France,FR,Bretagne,,14158,14158
Montmagny,48.9736,2.3458,France,FR,Île-de-France,,14145,14145
Saint-Brevin-les-Pins,47.2464,-2.1669,France,FR,Pays de la Loire,,14118,14118
Saint-Fargeau,48.5328,2.5447,France,FR,Île-de-France,,14109,14109
Rixheim,47.7486,7.4044,France,FR,Grand Est,,14071,14071
Avrillé,47.5069,-0.5889,France,FR,Pays de la Loire,,14065,14065
Douarnenez,48.0922,-4.3303,France,FR,Bretagne,,14015,14015
Saint-Maurice,48.8183,2.4347,France,FR,Île-de-France,,14001,14001
Woippy,49.1511,6.1514,France,FR,Grand Est,,13998,13998
Biscarrosse,44.3931,-1.1639,France,FR,Nouvelle-Aquitaine,,13946,13946
Auray,47.6678,-2.9825,France,FR,Bretagne,,13945,13945
Castelsarrasin,44.0400,1.1069,France,FR,Occitanie,minor,13934,13934
Thouars,46.9750,-0.2153,France,FR,Nouvelle-Aquitaine,,13932,13932
Fleury-Mérogis,48.6294,2.3614,France,FR,Île-de-France,,13917,13917
Castanet-Tolosan,43.5156,1.4981,France,FR,Occitanie,,13811,13811
Berck-sur-Mer,50.4083,1.5928,France,FR,Hauts-de-France,,13791,13791
Saint-Gilles,43.6778,4.4311,France,FR,Occitanie,,13787,13787
Ollioules,43.1394,5.8469,France,FR,Provence-Alpes-Côte d’Azur,,13771,13771
Gien,47.6981,2.6250,France,FR,Centre-Val de Loire,,13732,13732
Argentan,48.7444,-0.0203,France,FR,Normandie,minor,13730,13730
Lons,43.3150,-0.4108,France,FR,Nouvelle-Aquitaine,,13720,13720
Mions,45.6631,4.9531,France,FR,Auvergne-Rhône-Alpes,,13665,13665
Avon,48.4089,2.7250,France,FR,Île-de-France,,13662,13662
Beausoleil,43.7419,7.4236,France,FR,Provence-Alpes-Côte d’Azur,,13576,13576
Outreau,50.7039,1.5939,France,FR,Hauts-de-France,,13575,13575
Saint-Martin-de-Crau,43.6397,4.8125,France,FR,Provence-Alpes-Côte d’Azur,,13558,13558
Tergnier,49.6558,3.2872,France,FR,Hauts-de-France,,13547,13547
Saint-Jacques-de-la-Lande,48.0903,-1.6956,France,FR,Bretagne,,13533,13533
Berre-l’Étang,43.4756,5.1681,France,FR,Provence-Alpes-Côte d’Azur,,13520,13520
Bollène,44.2803,4.7489,France,FR,Provence-Alpes-Côte d’Azur,,13509,13509
Fontenay-le-Fleury,48.8136,2.0486,France,FR,Île-de-France,,13494,13494
Lys-lès-Lannoy,50.6714,3.2144,France,FR,Hauts-de-France,,13471,13471
Montataire,49.2556,2.4383,France,FR,Hauts-de-France,,13461,13461
Morangis,48.7064,2.3347,France,FR,Île-de-France,,13453,13453
Pierrelatte,44.3775,4.6961,France,FR,Auvergne-Rhône-Alpes,,13452,13452
Saint-Paul-lès-Dax,43.7256,-1.0528,France,FR,Nouvelle-Aquitaine,,13436,13436
Lieusaint,48.6322,2.5486,France,FR,Île-de-France,,13410,13410
Persan,49.1533,2.2711,France,FR,Île-de-France,,13386,13386
Vaires-sur-Marne,48.8742,2.6381,France,FR,Île-de-France,,13383,13383
Roncq,50.7536,3.1203,France,FR,Hauts-de-France,,13361,13361
Audincourt,47.4828,6.8397,France,FR,Bourgogne-Franche-Comté,,13336,13336
Plougastel-Daoulas,48.3725,-4.3706,France,FR,Bretagne,,13330,13330
Anzin,50.3714,3.5044,France,FR,Hauts-de-France,,13303,13303
Fontenay-le-Comte,46.4669,-0.8064,France,FR,Pays de la Loire,minor,13302,13302
Kingersheim,47.7914,7.3381,France,FR,Grand Est,,13267,13267
Valbonne,43.6414,7.0089,France,FR,Provence-Alpes-Côte d’Azur,,13257,13257
Saint-Genis-Pouilly,46.2433,6.0214,France,FR,Auvergne-Rhône-Alpes,,13243,13243
Noyon,49.5811,2.9989,France,FR,Hauts-de-France,,13235,13235
Lourdes,43.0950,-0.0453,France,FR,Occitanie,,13210,13210
Moissac,44.1047,1.0853,France,FR,Occitanie,,13195,13195
Mouvaux,50.7033,3.1406,France,FR,Hauts-de-France,,13173,13173
Nemours,48.2686,2.6936,France,FR,Île-de-France,,13165,13165
Autun,46.9511,4.2986,France,FR,Bourgogne-Franche-Comté,minor,13157,13157
Amilly,47.9731,2.7703,France,FR,Centre-Val de Loire,,13099,13099
Gex,46.3333,6.0578,France,FR,Auvergne-Rhône-Alpes,minor,13093,13093
Andrésy,48.9808,2.0583,France,FR,Île-de-France,,13078,13078
Châteaudun,48.0708,1.3378,France,FR,Centre-Val de Loire,minor,13078,13078
Creutzwald,49.2053,6.6958,France,FR,Grand Est,,13070,13070
Genas,45.7314,5.0022,France,FR,Auvergne-Rhône-Alpes,,13022,13022
Bayeux,49.2786,-0.7039,France,FR,Normandie,minor,13017,13017
Plouzané,48.3800,-4.6006,France,FR,Bretagne,,12979,12979
Saint-André,50.6603,3.0439,France,FR,Hauts-de-France,,12966,12966
Yzeure,46.5658,3.3544,France,FR,Auvergne-Rhône-Alpes,,12899,12899
Guéret,46.1706,1.8683,France,FR,Nouvelle-Aquitaine,minor,12889,12889
Monteux,44.0356,4.9972,France,FR,Provence-Alpes-Côte d’Azur,,12875,12875
Mayenne,48.3031,-0.6136,France,FR,Pays de la Loire,minor,12874,12874
Les Ponts-de-Cé,47.4244,-0.5253,France,FR,Pays de la Loire,,12811,12811
Châlette-sur-Loing,48.0117,2.7358,France,FR,Centre-Val de Loire,,12790,12790
Graulhet,43.7608,1.9886,France,FR,Occitanie,,12789,12789
Auriol,43.3694,5.6314,France,FR,Provence-Alpes-Côte d’Azur,,12771,12771
Montévrain,48.8753,2.7456,France,FR,Île-de-France,,12764,12764
Amboise,47.4114,0.9825,France,FR,Centre-Val de Loire,,12693,12693
Cusset,46.1344,3.4564,France,FR,Auvergne-Rhône-Alpes,,12685,12685
Riedisheim,47.7483,7.3669,France,FR,Grand Est,,12660,12660
Billère,43.3025,-0.3972,France,FR,Nouvelle-Aquitaine,,12628,12628
Bischwiller,48.7664,7.8569,France,FR,Grand Est,,12615,12615
Pont-Sainte-Maxence,49.3011,2.6036,France,FR,Hauts-de-France,,12601,12601
Ostwald,48.5511,7.7136,France,FR,Grand Est,,12586,12586
Saint-André-les-Vergers,48.2797,4.0539,France,FR,Grand Est,,12581,12581
Lamballe,48.4686,-2.5178,France,FR,Bretagne,,12579,12579
Granville,48.8381,-1.5869,France,FR,Normandie,,12567,12567
Bonneville,46.0789,6.4008,France,FR,Auvergne-Rhône-Alpes,minor,12557,12557
Vernouillet,48.7208,1.3606,France,FR,Centre-Val de Loire,,12522,12522
Saint-Orens-de-Gameville,43.5514,1.5342,France,FR,Occitanie,,12522,12522
Comines,50.7611,3.0078,France,FR,Hauts-de-France,,12498,12498
Tarnos,43.5406,-1.4614,France,FR,Nouvelle-Aquitaine,,12498,12498
Carros,43.7725,7.1933,France,FR,Provence-Alpes-Côte d’Azur,,12489,12489
Raismes,50.3892,3.4858,France,FR,Hauts-de-France,,12468,12468
Seclin,50.5483,3.0294,France,FR,Hauts-de-France,,12410,12410
Sarrebourg,48.7347,7.0539,France,FR,Grand Est,minor,12331,12331
Harnes,50.4450,2.9058,France,FR,Hauts-de-France,,12324,12324
Épinay-sous-Sénart,48.6931,2.5158,France,FR,Île-de-France,,12279,12279
Claye-Souilly,48.9450,2.6867,France,FR,Île-de-France,,12264,12264
Aubenas,44.6197,4.3903,France,FR,Auvergne-Rhône-Alpes,,12253,12253
Mende,44.5183,3.5006,France,FR,Occitanie,minor,12227,12227
Somain,50.3575,3.2803,France,FR,Hauts-de-France,,12213,12213
Barentin,49.5444,0.9536,France,FR,Normandie,,12211,12211
Le Chambon-Feugerolles,45.3961,4.3250,France,FR,Auvergne-Rhône-Alpes,,12200,12200
Quimperlé,47.8728,-3.5497,France,FR,Bretagne,,12188,12188
Canet-en-Roussillon,42.7056,3.0072,France,FR,Occitanie,,12186,12186
Vidauban,43.4272,6.4319,France,FR,Provence-Alpes-Côte d’Azur,,12176,12176
Sablé-sur-Sarthe,47.8400,-0.3342,France,FR,Pays de la Loire,,12127,12127
Bully-les-Mines,50.4419,2.7244,France,FR,Hauts-de-France,,12117,12117
Oissel,49.3419,1.0914,France,FR,Normandie,,12102,12102
Andernos-les-Bains,44.7425,-1.0903,France,FR,Nouvelle-Aquitaine,,12096,12096
Triel-sur-Seine,48.9808,2.0061,France,FR,Île-de-France,,12081,12081
Rognac,43.4878,5.2322,France,FR,Provence-Alpes-Côte d’Azur,,12080,12080
Marly,50.3489,3.5442,France,FR,Hauts-de-France,,12074,12074
Saint-André-de-Cubzac,44.9947,-0.4458,France,FR,Nouvelle-Aquitaine,,12051,12051
Fonsorbes,43.5361,1.2311,France,FR,Occitanie,,12036,12036
Mèze,43.4267,3.6053,France,FR,Occitanie,,12012,12012
Châteaubriant,47.7169,-1.3761,France,FR,Pays de la Loire,minor,12011,12011
Provins,48.5589,3.2994,France,FR,Île-de-France,minor,12000,12000
L’Isle-Adam,49.1111,2.2228,France,FR,Île-de-France,,11986,11986
Aubergenville,48.9583,1.8550,France,FR,Île-de-France,,11974,11974
Betton,48.1825,-1.6439,France,FR,Bretagne,,11968,11968
Castelnaudary,43.3181,1.9539,France,FR,Occitanie,,11951,11951
La Motte-Servolex,45.5967,5.8775,France,FR,Auvergne-Rhône-Alpes,,11932,11932
La Chapelle-Saint-Luc,48.3119,4.0444,France,FR,Grand Est,,11913,11913
La Queue-en-Brie,48.7894,2.5767,France,FR,Île-de-France,,11909,11909
Florange,49.3214,6.1183,France,FR,Grand Est,,11864,11864
Pacé,48.1478,-1.7739,France,FR,Bretagne,,11825,11825
Noeux-les-Mines,50.4797,2.6647,France,FR,Hauts-de-France,,11813,11813
Château-Gontier,47.8286,-0.7028,France,FR,Pays de la Loire,minor,11805,11805
Pont-du-Château,45.7983,3.2483,France,FR,Auvergne-Rhône-Alpes,,11802,11802
Saint-Avé,47.6867,-2.7344,France,FR,Bretagne,,11787,11787
Villefranche-de-Rouergue,44.3525,2.0342,France,FR,Occitanie,minor,11781,11781
Thiers,45.8564,3.5475,France,FR,Auvergne-Rhône-Alpes,minor,11778,11778
Chauny,49.6156,3.2192,France,FR,Hauts-de-France,,11773,11773
Villeneuve-lès-Avignon,43.9664,4.7958,France,FR,Occitanie,,11769,11769
Porto-Vecchio,41.5908,9.2797,France,FR,Corsica,,11748,11748
Vitry-le-François,48.7247,4.5844,France,FR,Grand Est,minor,11743,11743
Chambray-lès-Tours,47.3375,0.7139,France,FR,Centre-Val de Loire,,11738,11738
Fourmies,50.0172,4.0533,France,FR,Hauts-de-France,,11714,11714
Brignais,45.6739,4.7542,France,FR,Auvergne-Rhône-Alpes,,11697,11697
Saint-Estève,42.7133,2.8419,France,FR,Occitanie,,11697,11697
Issoudun,46.9481,1.9933,France,FR,Centre-Val de Loire,minor,11690,11690
Gisors,49.2806,1.7764,France,FR,Normandie,,11674,11674
Onet Village,44.3656,2.5936,France,FR,Occitanie,,11659,11659
Guidel,47.7906,-3.4886,France,FR,Bretagne,,11659,11659
Vauvert,43.6933,4.2761,France,FR,Occitanie,,11633,11633
Talant,47.3364,5.0056,France,FR,Bourgogne-Franche-Comté,,11630,11630
Yvetot,49.6169,0.7531,France,FR,Normandie,,11627,11627
Le Relecq-Kerhuon,48.4086,-4.3969,France,FR,Bretagne,,11625,11625
Bolbec,49.5722,0.4725,France,FR,Normandie,,11605,11605
Saint-Gaudens,43.1081,0.7233,France,FR,Occitanie,minor,11604,11604
Saint-Cyr-sur-Mer,43.1836,5.7086,France,FR,Provence-Alpes-Côte d’Azur,,11580,11580
Arcachon,44.6586,-1.1689,France,FR,Nouvelle-Aquitaine,minor,11567,11567
Ifs,49.1383,-0.3531,France,FR,Normandie,,11567,11567
Cuers,43.2375,6.0708,France,FR,Provence-Alpes-Côte d’Azur,,11560,11560
Cogolin,43.2525,6.5300,France,FR,Provence-Alpes-Côte d’Azur,,11556,11556
Solliès-Pont,43.1900,6.0411,France,FR,Provence-Alpes-Côte d’Azur,,11496,11496
Maizières-lès-Metz,49.2122,6.1611,France,FR,Grand Est,,11490,11490
Ploufragan,48.4894,-2.7958,France,FR,Bretagne,,11489,11489
Plan-de-Cuques,43.3469,5.4631,France,FR,Provence-Alpes-Côte d’Azur,,11481,11481
L’Union,43.6564,1.4844,France,FR,Occitanie,,11458,11458
Bellegarde-sur-Valserine,46.1075,5.8258,France,FR,Auvergne-Rhône-Alpes,,11450,11450
Stiring-Wendel,49.2000,6.9292,France,FR,Grand Est,,11385,11385
Juvignac,43.6131,3.8097,France,FR,Occitanie,,11363,11363
Saint-Saulve,50.3697,3.5547,France,FR,Hauts-de-France,,11353,11353
Obernai,48.4622,7.4819,France,FR,Grand Est,,11350,11350
Méricourt,50.4022,2.8658,France,FR,Hauts-de-France,,11346,11346
Le Haillan,44.8717,-0.6769,France,FR,Nouvelle-Aquitaine,,11342,11342
Cernay,47.8067,7.1758,France,FR,Grand Est,,11326,11326
Bruay-sur-l’Escaut,50.3983,3.5394,France,FR,Hauts-de-France,,11311,11311
Saverne,48.7414,7.3619,France,FR,Grand Est,minor,11289,11289
Enghien-les-Bains,48.9697,2.3081,France,FR,Île-de-France,,11285,11285
Sassenage,45.2050,5.6650,France,FR,Auvergne-Rhône-Alpes,,11277,11277
Saint-Junien,45.8872,0.9011,France,FR,Nouvelle-Aquitaine,,11257,11257
Lézignan-Corbières,43.2006,2.7578,France,FR,Occitanie,,11248,11248
Saint-Martin-Boulogne,50.7258,1.6322,France,FR,Hauts-de-France,,11226,11226
Passy,45.9236,6.6864,France,FR,Auvergne-Rhône-Alpes,,11203,11203
Saint-Hilaire-de-Riez,46.7211,-1.9456,France,FR,Pays de la Loire,,11179,11179
La Roche-sur-Foron,46.0669,6.3119,France,FR,Auvergne-Rhône-Alpes,,11175,11175
Épinay-sur-Orge,48.6739,2.3272,France,FR,Île-de-France,,11160,11160
Chevigny-Saint-Sauveur,47.3017,5.1356,France,FR,Bourgogne-Franche-Comté,,11160,11160
Hœnheim,48.6242,7.7547,France,FR,Grand Est,,11145,11145
Gravelines,50.9864,2.1275,France,FR,Hauts-de-France,,11132,11132
Vedène,43.9775,4.9031,France,FR,Provence-Alpes-Côte d’Azur,,11131,11131
Craponne,45.7453,4.7233,France,FR,Auvergne-Rhône-Alpes,,11125,11125
Villecresnes,48.7214,2.5342,France,FR,Île-de-France,,11119,11119
Corbas,45.6681,4.9019,France,FR,Auvergne-Rhône-Alpes,,11108,11108
Mainvilliers,48.4531,1.4619,France,FR,Centre-Val de Loire,,11087,11087
Briançon,44.8958,6.6350,France,FR,Provence-Alpes-Côte d’Azur,minor,11084,11084
Allonnes,47.9686,0.1606,France,FR,Pays de la Loire,,11075,11075
Septèmes-les-Vallons,43.3983,5.3658,France,FR,Provence-Alpes-Côte d’Azur,,11058,11058
Ville-d’Avray,48.8261,2.1933,France,FR,Île-de-France,,11050,11050
Guebwiller,47.9075,7.2103,France,FR,Grand Est,,11022,11022
Apt,43.8761,5.3964,France,FR,Provence-Alpes-Côte d’Azur,minor,11011,11011
Le Luc,43.3947,6.3128,France,FR,Provence-Alpes-Côte d’Azur,,11008,11008
Chantilly,49.1869,2.4608,France,FR,Hauts-de-France,,11001,11001
Vaux-le-Pénil,48.5264,2.6822,France,FR,Île-de-France,,10985,10985
Villepreux,48.8300,2.0022,France,FR,Île-de-France,,10975,10975
Panazol,45.8389,1.3100,France,FR,Nouvelle-Aquitaine,,10974,10974
Pornichet,47.2658,-2.3400,France,FR,Pays de la Loire,,10952,10952
Saint-Pierre-du-Perray,48.6131,2.4953,France,FR,Île-de-France,,10930,10930
Saint-Jean,43.6653,1.5050,France,FR,Occitanie,,10929,10929
Étaples,50.5178,1.6406,France,FR,Hauts-de-France,,10926,10926
Voisins-le-Bretonneux,48.7583,2.0508,France,FR,Île-de-France,,10921,10921
Biganos,44.6442,-0.9783,France,FR,Nouvelle-Aquitaine,,10921,10921
Arpajon,48.5903,2.2478,France,FR,Île-de-France,,10920,10920
Valentigney,47.4625,6.8322,France,FR,Bourgogne-Franche-Comté,,10912,10912
Saint-Germain-lès-Arpajon,48.5953,2.2556,France,FR,Île-de-France,,10877,10877
Wambrechies,50.6853,3.0486,France,FR,Hauts-de-France,,10857,10857
Saint-Cyprien,42.6181,3.0064,France,FR,Occitanie,,10844,10844
Montlouis-sur-Loire,47.3883,0.8272,France,FR,Centre-Val de Loire,,10825,10825
Beaumont,45.7517,3.0831,France,FR,Auvergne-Rhône-Alpes,,10793,10793
Pontchâteau,47.4369,-2.0878,France,FR,Pays de la Loire,,10771,10771
Vire,48.8386,-0.8892,France,FR,Normandie,minor,10762,10762
Guilherand,44.9344,4.8747,France,FR,Auvergne-Rhône-Alpes,,10760,10760
Dugny,48.9536,2.4164,France,FR,Île-de-France,,10757,10757
Riorges,46.0428,4.0406,France,FR,Auvergne-Rhône-Alpes,,10757,10757
Aubière,45.7508,3.1108,France,FR,Auvergne-Rhône-Alpes,,10745,10745
Longuenesse,50.7356,2.2372,France,FR,Hauts-de-France,,10736,10736
Castelginest,43.6936,1.4328,France,FR,Occitanie,,10734,10734
Maromme,49.4819,1.0419,France,FR,Normandie,,10730,10730
Villers-Cotterêts,49.2531,3.0903,France,FR,Hauts-de-France,,10676,10676
Lavaur,43.6989,1.8189,France,FR,Occitanie,,10671,10671
Portes-lès-Valence,44.8733,4.8764,France,FR,Auvergne-Rhône-Alpes,,10666,10666
Héricourt,47.5775,6.7617,France,FR,Bourgogne-Franche-Comté,,10654,10654
Marck,50.9481,1.9503,France,FR,Hauts-de-France,,10649,10649
Oloron-Sainte-Marie,43.1942,-0.6067,France,FR,Nouvelle-Aquitaine,minor,10629,10629
Cesson,48.5658,2.6011,France,FR,Île-de-France,,10625,10625
Erstein,48.4219,7.6611,France,FR,Grand Est,,10621,10621
Le Pont-de-Claix,45.1231,5.6981,France,FR,Auvergne-Rhône-Alpes,,10605,10605
Tournon-sur-Rhône,45.0672,4.8328,France,FR,Auvergne-Rhône-Alpes,minor,10598,10598
Tarare,45.8961,4.4331,France,FR,Auvergne-Rhône-Alpes,,10587,10587
Dourdan,48.5289,2.0108,France,FR,Île-de-France,,10559,10559
Villebon-sur-Yvette,48.7000,2.2278,France,FR,Île-de-France,,10546,10546
Courrières,50.4581,2.9472,France,FR,Hauts-de-France,,10544,10544
Orthez,43.4881,-0.7708,France,FR,Nouvelle-Aquitaine,,10515,10515
Amnéville,49.2608,6.1419,France,FR,Grand Est,,10505,10505
Trets,43.4469,5.6858,France,FR,Provence-Alpes-Côte d’Azur,,10500,10500
Chassieu,45.7444,4.9664,France,FR,Auvergne-Rhône-Alpes,,10498,10498
Annoeullin,50.5294,2.9328,France,FR,Hauts-de-France,,10486,10486
Louvres,49.0439,2.5053,France,FR,Île-de-France,,10478,10478
Léognan,44.7286,-0.6008,France,FR,Nouvelle-Aquitaine,,10471,10471
Déville-lès-Rouen,49.4697,1.0497,France,FR,Normandie,,10461,10461
Pierre-Bénite,45.7036,4.8242,France,FR,Auvergne-Rhône-Alpes,,10461,10461
Chantepie,48.0886,-1.6164,France,FR,Bretagne,,10458,10458
Saint-Jean-de-Védas,43.5764,3.8239,France,FR,Occitanie,,10452,10452
Urrugne,43.3622,-1.7000,France,FR,Nouvelle-Aquitaine,,10432,10432
Gaillard,46.1850,6.2075,France,FR,Auvergne-Rhône-Alpes,,10419,10419
Sainte-Savine,48.2947,4.0489,France,FR,Grand Est,,10409,10409
Pélissanne,43.6314,5.1506,France,FR,Provence-Alpes-Côte d’Azur,,10404,10404
Ormesson-sur-Marne,48.7858,2.5383,France,FR,Île-de-France,,10403,10403
Auchel,50.5083,2.4736,France,FR,Hauts-de-France,,10399,10399
Mios,44.6050,-0.9369,France,FR,Nouvelle-Aquitaine,,10398,10398
Pont-Saint-Esprit,44.2564,4.6483,France,FR,Occitanie,,10397,10397
La Londe-les-Maures,43.1381,6.2344,France,FR,Provence-Alpes-Côte d’Azur,,10389,10389
Vieux-Condé,50.4594,3.5683,France,FR,Hauts-de-France,,10374,10374
Argelès-sur-Mer,42.5461,3.0239,France,FR,Occitanie,,10366,10366
Fondettes,47.4042,0.5989,France,FR,Centre-Val de Loire,,10357,10357
Marquette-lès-Lille,50.6758,3.0661,France,FR,Hauts-de-France,,10354,10354
Chanteloup-les-Vignes,48.9783,2.0308,France,FR,Île-de-France,,10341,10341
Wittelsheim,47.8053,7.2375,France,FR,Grand Est,,10341,10341
La Riche,47.3892,0.6606,France,FR,Centre-Val de Loire,,10331,10331
Montigny-en-Gohelle,50.4278,2.9297,France,FR,Hauts-de-France,,10315,10315
Gerzat,45.8258,3.1447,France,FR,Auvergne-Rhône-Alpes,,10315,10315
Douchy-les-Mines,50.3014,3.3933,France,FR,Hauts-de-France,,10311,10311
Le Pradet,43.1056,6.0233,France,FR,Provence-Alpes-Côte d’Azur,,10265,10265
Thouaré-sur-Loire,47.2675,-1.4406,France,FR,Pays de la Loire,,10261,10261
Avranches,48.6844,-1.3569,France,FR,Normandie,minor,10246,10246
Cabestany,42.6806,2.9428,France,FR,Occitanie,,10235,10235
Parthenay,46.6486,-0.2469,France,FR,Nouvelle-Aquitaine,minor,10235,10235
Neuville-en-Ferrain,50.7467,3.1581,France,FR,Hauts-de-France,,10231,10231
Jeumont,50.2944,4.1014,France,FR,Hauts-de-France,,10229,10229
La Chapelle-Saint-Mesmin,47.8897,1.8397,France,FR,Centre-Val de Loire,,10205,10205
Dammartin-en-Goële,49.0542,2.6814,France,FR,Île-de-France,,10196,10196
Clermont,49.3789,2.4125,France,FR,Hauts-de-France,minor,10183,10183
Villeneuve-lès-Maguelone,43.5322,3.8608,France,FR,Occitanie,,10178,10178
Chambly,49.1667,2.2481,France,FR,Hauts-de-France,,10174,10174
Marly,49.0611,6.1497,France,FR,Grand Est,,10160,10160
Saint-Laurent-de-la-Salanque,42.7736,2.9908,France,FR,Occitanie,,10158,10158
Fuveau,43.4522,5.5617,France,FR,Provence-Alpes-Côte d’Azur,,10157,10157
Caudebec-lès-Elbeuf,49.2808,1.0211,France,FR,Normandie,,10156,10156
Tinqueux,49.2500,3.9908,France,FR,Grand Est,,10154,10154
Dinard,48.6325,-2.0617,France,FR,Bretagne,,10148,10148
Aniche,50.3300,3.2511,France,FR,Hauts-de-France,,10146,10146
Châteaugiron,48.0481,-1.5031,France,FR,Bretagne,,10125,10125
Pont-Audemer,49.3542,0.5139,France,FR,Normandie,,10120,10120
Le Taillan-Médoc,44.9044,-0.6697,France,FR,Nouvelle-Aquitaine,,10118,10118
Limoux,43.0569,2.2186,France,FR,Occitanie,minor,10112,10112
Vernouillet,48.9722,1.9833,France,FR,Île-de-France,,10077,10077
Miribel,45.8244,4.9531,France,FR,Auvergne-Rhône-Alpes,,10043,10043
Buxerolles,46.5975,0.3492,France,FR,Nouvelle-Aquitaine,,10042,10042
Mazamet,43.4917,2.3733,France,FR,Occitanie,,10033,10033
Bourg-de-Péage,45.0378,5.0500,France,FR,Auvergne-Rhône-Alpes,,10007,10007
Saint-Gély-du-Fesc,43.6922,3.8061,France,FR,Occitanie,,9996,9996
Villeneuve-Tolosane,43.5236,1.3417,France,FR,Occitanie,,9987,9987
La Trinité,43.7408,7.3142,France,FR,Provence-Alpes-Côte d’Azur,,9985,9985
Saint-Max,48.7011,6.2067,France,FR,Grand Est,,9984,9984
Pernes-les-Fontaines,43.9978,5.0592,France,FR,Provence-Alpes-Côte d’Azur,,9975,9975
Brumath,48.7319,7.7083,France,FR,Grand Est,,9970,9970
Bondues,50.7017,3.0933,France,FR,Hauts-de-France,,9961,9961
Bernay,49.0886,0.5983,France,FR,Normandie,minor,9951,9951
Eybens,45.1486,5.7503,France,FR,Auvergne-Rhône-Alpes,,9947,9947
Mouans-Sartoux,43.6200,6.9719,France,FR,Provence-Alpes-Côte d’Azur,,9911,9911
Lillers,50.5636,2.4819,France,FR,Hauts-de-France,,9910,9910
Méry-sur-Oise,49.0636,2.1864,France,FR,Île-de-France,,9900,9900
Ferney-Voltaire,46.2558,6.1081,France,FR,Auvergne-Rhône-Alpes,,9895,9895
Mondeville,49.1739,-0.3211,France,FR,Normandie,,9893,9893
Feyzin,45.6728,4.8589,France,FR,Auvergne-Rhône-Alpes,,9879,9879
Blain,47.4761,-1.7636,France,FR,Pays de la Loire,,9873,9873
Auterive,43.3503,1.4747,France,FR,Occitanie,,9869,9869
Oignies,50.4692,2.9936,France,FR,Hauts-de-France,,9841,9841
Cabriès,43.4411,5.3797,France,FR,Provence-Alpes-Côte d’Azur,,9834,9834
Rombas,49.2494,6.0947,France,FR,Grand Est,,9833,9833
Saint-Rémy-de-Provence,43.7894,4.8317,France,FR,Provence-Alpes-Côte d’Azur,,9829,9829
Villerupt,49.4697,5.9286,France,FR,Grand Est,,9827,9827
Roche-la-Molière,45.4339,4.3236,France,FR,Auvergne-Rhône-Alpes,,9825,9825
Albert,50.0019,2.6522,France,FR,Hauts-de-France,,9810,9810
Lambesc,43.6539,5.2619,France,FR,Provence-Alpes-Côte d’Azur,,9799,9799
Portet-sur-Garonne,43.5219,1.4061,France,FR,Occitanie,,9791,9791
Le Beausset,43.1983,5.8028,France,FR,Provence-Alpes-Côte d’Azur,,9790,9790
Divonne-les-Bains,46.3567,6.1428,France,FR,Auvergne-Rhône-Alpes,,9787,9787
Ploërmel,47.9317,-2.3975,France,FR,Bretagne,,9787,9787
Figeac,44.6086,2.0317,France,FR,Occitanie,minor,9778,9778
Darnétal,49.4447,1.1511,France,FR,Normandie,,9773,9773
Aire-sur-la-Lys,50.6386,2.3967,France,FR,Hauts-de-France,,9772,9772
Saint-Loubès,44.9172,-0.4281,France,FR,Nouvelle-Aquitaine,,9770,9770
Bondoufle,48.6133,2.3806,France,FR,Île-de-France,,9765,9765
Saint-Grégoire,48.1511,-1.6861,France,FR,Bretagne,,9765,9765
Biot,43.6286,7.0956,France,FR,Provence-Alpes-Côte d’Azur,,9746,9746
Igny,48.7422,2.2261,France,FR,Île-de-France,,9744,9744
Cosne sur Loire,47.4103,2.9250,France,FR,Bourgogne-Franche-Comté,minor,9741,9741
Maxéville,48.7114,6.1631,France,FR,Grand Est,,9740,9740
Fosses,49.0981,2.5067,France,FR,Île-de-France,,9737,9737
Lescar,43.3250,-0.4161,France,FR,Nouvelle-Aquitaine,,9735,9735
Ézanville,49.0278,2.3608,France,FR,Île-de-France,,9719,9719
Grand-Couronne,49.3575,1.0072,France,FR,Normandie,,9716,9716
Dombasle-sur-Meurthe,48.6250,6.3497,France,FR,Grand Est,,9694,9694
Aizenay,46.7400,-1.6083,France,FR,Pays de la Loire,,9694,9694
Grigny,45.6083,4.7897,France,FR,Auvergne-Rhône-Alpes,,9675,9675
Fouesnant,47.8933,-4.0122,France,FR,Bretagne,,9668,9668
Pfastatt,47.7689,7.3017,France,FR,Grand Est,,9656,9656
Sallaumines,50.4197,2.8622,France,FR,Hauts-de-France,,9654,9654
Arques,50.7356,2.3025,France,FR,Hauts-de-France,,9654,9654
Escaudain,50.3344,3.3428,France,FR,Hauts-de-France,,9645,9645
Carmaux,44.0492,2.1581,France,FR,Occitanie,,9641,9641
Saint-Pierre-du-Mont,43.8825,-0.5194,France,FR,Nouvelle-Aquitaine,,9625,9625
Neuville-lès-Dieppe,49.9267,1.1014,France,FR,Normandie,,9616,9616
Nogent-le-Rotrou,48.3217,0.8217,France,FR,Centre-Val de Loire,minor,9610,9610
Revel,43.4586,2.0042,France,FR,Occitanie,,9610,9610
Gignac-la-Nerthe,43.3932,5.2356,France,FR,Provence-Alpes-Côte d’Azur,,9606,9606
Croissy-sur-Seine,48.8778,2.1422,France,FR,Île-de-France,,9602,9602
Loudéac,48.1778,-2.7533,France,FR,Bretagne,,9600,9600
Merville,50.6439,2.6403,France,FR,Hauts-de-France,,9598,9598
La Ferté-sous-Jouarre,48.9492,3.1294,France,FR,Île-de-France,,9586,9586
Condé-sur-l’Escaut,50.4492,3.5906,France,FR,Hauts-de-France,,9586,9586
Bures-sur-Yvette,48.6967,2.1614,France,FR,Île-de-France,,9577,9577
Luçon,46.4547,-1.1658,France,FR,Pays de la Loire,,9576,9576
Beaumont-sur-Oise,49.1425,2.2864,France,FR,Île-de-France,,9555,9555
Carqueiranne,43.0950,6.0736,France,FR,Provence-Alpes-Côte d’Azur,,9555,9555
Ussel,45.5481,2.3092,France,FR,Nouvelle-Aquitaine,minor,9555,9555
Soyaux,45.6403,0.1978,France,FR,Nouvelle-Aquitaine,,9553,9553
Saint-Doulchard,47.0997,2.3728,France,FR,Centre-Val de Loire,,9549,9549
Saint-Amand-Montrond,46.7228,2.5050,France,FR,Centre-Val de Loire,minor,9531,9531
Saint-Lys,43.5142,1.1775,France,FR,Occitanie,,9488,9488
Joigny,47.9822,3.3972,France,FR,Bourgogne-Franche-Comté,,9479,9479
Treillières,47.3308,-1.6267,France,FR,Pays de la Loire,,9459,9459
Foix,42.9653,1.6069,France,FR,Occitanie,minor,9452,9452
Le Passage,44.2014,0.6033,France,FR,Nouvelle-Aquitaine,,9447,9447
Valréas,44.3842,4.9903,France,FR,Provence-Alpes-Côte d’Azur,,9426,9426
Leers,50.6817,3.2439,France,FR,Hauts-de-France,,9400,9400